StopCode,StopCode,location,stop_id,stop_name,stop_code,stop_desc,stop_lat,stop_lon,zone_id,stop_url,location_type,parent_station,stop_timezone,wheelchair_boarding,level_id,platform_code,HarmCen,CatHarmCen,Clossnes,CatClossnes,BetCen
1.111,1.111,"(425309.7919977078, 4577405.036266687)",1.111,Hospital de Bellvitge,111,,41.344677,2.107242,,,0,P.6660111,,1,,,3.961653797587,2,1.223628691983,1,0.0
1.112,1.112,"(425624.4223956904, 4578101.068806397)",1.112,Bellvitge,112,,41.350975,2.110917,,,0,P.6660112,,1,,,4.927171038966,3,1.307809535658,1,225.751834233653
1.113,1.113,"(424940.0462070365, 4578949.503093621)",1.113,Av. Carrilet,113,,41.358553,2.102632,,,0,P.6660113,,1,,,5.391456753252,4,1.397056380611,1,435.378537450617
1.114,1.114,"(424705.2792997916, 4579566.710950628)",1.114,Rambla Just Oliveras,114,,41.36409,2.099749,,,0,P.6660114,,1,,,5.687753049548,4,1.49097613729,2,628.880109650891
1.115,1.115,"(424961.08820674696, 4579964.211942227)",1.115,Can Serra,115,,41.367694,2.102758,,,0,P.6660115,,1,,,5.899291511087,4,1.588890988097,2,806.256550834476
1.116,1.116,"(425569.7306865116, 4580026.998564851)",1.116,Florida,116,,41.368316,2.110027,,,0,P.6660116,,1,,,6.059291511087,5,1.689772955596,2,967.507861001371
1.117,1.117,"(426119.03850226186, 4580030.262287229)",1.117,Torrassa,117,,41.368396,2.116594,,,0,P.6660117,,1,,,6.184291511087,5,1.792183437753,3,1112.634040151576
1.118,1.118,"(427125.02410639037, 4580066.71271275)",1.118,Santa Eulàlia,118,,41.368816,2.128617,,,0,P.6660118,,1,,,6.283670393074,5,1.894229469796,3,1241.635088285092
1.119,1.119,"(427541.0573600251, 4580527.422651076)",1.119,Mercat Nou,119,,41.373003,2.133536,,,0,P.6660119,,1,,,6.36321584762,5,1.993552363343,3,1354.511005401919
1.120,1.120,"(427929.84020548355, 4580784.465602831)",1.120,Plaça de Sants,120,,41.375353,2.138154,,,0,P.6660120,,2,,,6.426707911112,5,2.087366592207,4,1451.261791502056
1.121,1.121,"(428359.3071105789, 4580769.216083669)",1.121,Hostafrancs,121,,41.375254,2.143291,,,0,P.6660121,,1,,,6.476707911112,5,2.172565228623,4,1531.887446585504
1.122,1.122,"(428868.93936255306, 4580792.620177407)",1.122,Espanya,122,,41.37551,2.149382,,,0,P.6660122,,2,,,6.514985423074,5,2.245900763766,4,1596.387970652261
1.123,1.123,"(429306.1401580053, 4581201.592292961)",1.123,Rocafort,123,,41.379232,2.154562,,,0,P.6660123,,1,,,6.542763200851,5,2.30423584854,4,1644.76336370233
1.124,1.124,"(429671.6330531317, 4581559.43507545)",1.124,Urgell,124,,41.382487,2.158891,,,0,P.6660124,,1,,,6.560862748363,5,2.344839123404,4,1677.013625735709
1.125,1.125,"(430126.1296836884, 4581924.541909243)",1.125,Universitat,125,,41.385815,2.164284,,,0,P.6660125,,1,,,6.569791319791,5,2.365682137834,4,1693.138756752398
1.126,1.126,"(430521.80018386466, 4582106.5989071475)",1.126,Catalunya,126,,41.387489,2.168995,,,0,P.6660126,,1,,,6.569791319791,5,2.365682137834,4,1693.138756752398
1.127,1.127,"(430989.9354847098, 4582340.502991833)",1.127,Urquinaona,127,,41.389636,2.174567,,,0,P.6660127,,2,,,6.560862748363,5,2.344839123404,4,1677.013625735709
1.128,1.128,"(431544.3976921107, 4582635.130189767)",1.128,Arc de Triomf,128,,41.392337,2.181165,,,0,P.6660128,,1,,,6.542763200851,5,2.30423584854,4,1644.76336370233
1.129,1.129,"(431934.4675263261, 4582896.590085531)",1.129,Marina,129,,41.394725,2.185801,,,0,P.6660129,,1,,,6.514985423074,5,2.245900763766,4,1596.387970652261
1.130,1.130,"(432087.457676981, 4583733.640338846)",1.130,Glòries,130,,41.402277,2.187537,,,0,P.6660130,,1,,,6.476707911112,5,2.172565228623,4,1531.887446585504
1.131,1.131,"(432051.0379618093, 4584609.553083371)",1.131,Clot,131,,41.410163,2.187003,,,0,P.6660131,,2,,,6.426707911112,5,2.087366592207,4,1451.261791502056
1.132,1.132,"(432061.82846482494, 4585278.288555624)",1.132,Navas,132,,41.416187,2.187057,,,0,P.6660132,,1,,,6.36321584762,5,1.993552363343,3,1354.511005401919
1.133,1.133,"(432061.418922701, 4585964.672420949)",1.133,La Sagrera,133,,41.422369,2.186975,,,0,P.6660133,,1,,,6.283670393074,5,1.894229469796,3,1241.635088285092
1.134,1.134,"(431792.09262780583, 4586773.720867028)",1.134,Fabra i Puig,134,,41.429633,2.183661,,,0,P.6660134,,1,,,6.184291511087,5,1.792183437753,3,1112.634040151576
1.135,1.135,"(432428.1467567715, 4587541.2905390635)",1.135,Sant Andreu,135,,41.4366,2.191187,,,0,P.6660135,,1,,,6.059291511087,5,1.689772955596,2,967.507861001371
1.136,1.136,"(432391.91391789174, 4588277.196895956)",1.136,Torras i Bages,136,,41.443225,2.190671,,,0,P.6660136,,1,,,5.899291511087,4,1.588890988097,2,806.256550834476
1.137,1.137,"(432662.3170037443, 4588910.981628243)",1.137,Trinitat Vella,137,,41.448956,2.193837,,,0,P.6660137,,1,,,5.687753049548,4,1.49097613729,2,628.880109650891
1.138,1.138,"(433141.6120202854, 4589015.341618854)",1.138,Baró de Viver,138,,41.449936,2.199563,,,0,P.6660138,,1,,,5.391456753252,4,1.397056380611,1,435.378537450617
1.139,1.139,"(433844.89772155636, 4589134.445148573)",1.139,Santa Coloma,139,,41.451067,2.207969,,,0,P.6660139,,1,,,4.927171038966,3,1.307809535658,1,225.751834233653
1.140,1.140,"(434719.60397896584, 4589183.783940541)",1.140,Fondo,140,,41.451583,2.218435,,,0,P.6660140,,1,,,3.961653797587,2,1.223628691983,1,0.0
1.210,1.210,"(430518.7118743003, 4580720.436937438)",1.210,Paral·lel,210,,41.375004,2.169117,,,0,P.6660210,,1,,,3.439552522641,2,1.195499296765,1,0.0
1.211,1.211,"(430032.51186499745, 4581261.2713299375)",1.211,Sant Antoni,211,,41.379833,2.163241,,,0,P.6660211,,1,,,4.380728993229,3,1.335119652592,1,129.001048133516
1.212,1.212,"(430093.98879088456, 4581808.604805817)",1.212,Universitat,212,,41.384768,2.163913,,,0,P.6660125,,1,,,4.818228993229,3,1.487084491098,2,241.876965250343
1.213,1.213,"(430460.9802964957, 4582321.134762881)",1.213,Passeig de Gràcia,213,,41.389416,2.168243,,,0,P.6660213,,1,,,5.084895659896,3,1.647850382028,2,338.62775135048
1.214,1.214,"(431078.4188867383, 4582922.671776076)",1.214,Tetuan,214,,41.394887,2.175559,,,0,P.6660214,,1,,,5.263467088467,4,1.811003885199,3,419.253406433927
1.215,1.215,"(431410.63157604606, 4583545.386386868)",1.215,Monumental,215,,41.400524,2.179462,,,0,P.6660215,,1,,,5.386544011544,4,1.966789165646,3,483.753930500685
1.216,1.216,"(431050.16589105525, 4583933.080160863)",1.216,Sagrada Família,216,,41.403985,2.175106,,,0,P.6660216,,1,,,5.469877344877,4,2.102429797759,4,532.129323550754
1.217,1.217,"(431688.3310365884, 4584287.985568115)",1.217,Encants,217,,41.407236,2.1827,,,0,P.6660217,,1,,,5.521825396825,4,2.203751715724,4,564.379585584133
1.218,1.218,"(432037.19991724705, 4584631.333565368)",1.218,Clot,218,,41.410358,2.186835,,,0,P.6660131,,1,,,5.546825396825,4,2.258165338334,4,580.504716600822
1.219,1.219,"(432766.615012084, 4585157.90305891)",1.219,Bac de Roda,219,,41.415162,2.195503,,,0,P.6660219,,1,,,5.546825396825,4,2.258165338334,4,580.504716600822
1.220,1.220,"(433206.9457545555, 4585587.058976018)",1.220,Sant Martí,220,,41.419064,2.200724,,,0,P.6660220,,1,,,5.521825396825,4,2.203751715724,4,564.379585584133
1.221,1.221,"(433620.1505968992, 4586134.956936081)",1.221,La Pau,221,,41.424033,2.205608,,,0,P.6660221,,1,,,5.469877344877,4,2.102429797759,4,532.129323550754
1.222,1.222,"(433983.4238591104, 4586794.583554775)",1.222,Verneda,222,,41.430004,2.209883,,,0,P.6660222,,1,,,5.386544011544,4,1.966789165646,3,483.753930500685
1.223,1.223,"(434646.4336524905, 4587215.356026439)",1.223,Artigues | Sant Adrià,223,,41.433848,2.217772,,,0,P.6660223,,1,,,5.263467088467,4,1.811003885199,3,419.253406433927
1.224,1.224,"(435553.5609611446, 4587427.38537564)",1.224,Sant Roc,224,,41.435831,2.228606,,,0,P.6660224,,1,,,5.084895659896,3,1.647850382028,2,338.62775135048
1.225,1.225,"(435961.83750305243, 4587912.948017222)",1.225,Gorg,225,,41.440237,2.233441,,,0,P.6660225,,1,,,4.818228993229,3,1.487084491098,2,241.876965250343
1.226,1.226,"(436342.85789569095, 4588316.834278327)",1.226,Pep Ventura,226,,41.443905,2.237959,,,0,P.6660226,,1,,,4.380728993229,3,1.335119652592,1,129.001048133516
1.227,1.227,"(436860.5921113206, 4588883.977008783)",1.227,Badalona Pompeu Fabra,227,,41.449054,2.244097,,,0,P.6660227,,1,,,3.439552522641,2,1.195499296765,1,0.0
1.314,1.314,"(425684.0625818567, 4581779.990968477)",1.314,Zona Universitària,314,,41.384115,2.111179,,,0,P.6660314,,1,,,3.815958177754,2,1.217137293087,1,0.0
1.315,1.315,"(426301.4742147416, 4581980.755971321)",1.315,Palau Reial,315,,41.38598,2.118538,,,0,P.6660315,,1,,,4.775958177754,3,1.314184784894,1,193.501572200274
1.316,1.316,"(426909.9556853911, 4582178.443059256)",1.316,Maria Cristina,316,,41.387816,2.125791,,,0,P.6660316,,1,,,5.234291511087,4,1.417812258972,2,370.878013383859
1.317,1.317,"(427330.5683609288, 4581763.845937846)",1.317,Les Corts,317,,41.38412,2.130871,,,0,P.6660317,,1,,,5.524146583551,4,1.527295831093,2,532.129323550754
1.318,1.318,"(427747.28521010233, 4581515.6356520625)",1.318,Plaça del Centre,318,,41.381922,2.135884,,,0,P.6660318,,1,,,5.728692038096,4,1.641367718893,2,677.255502700959
1.319,1.319,"(428174.03617198975, 4581475.419620874)",1.319,Sants Estació,319,,41.381598,2.140992,,,0,P.6660319,,1,,,5.881072990477,4,1.758087201125,3,806.256550834476
1.320,1.320,"(428533.8638853281, 4581127.116277564)",1.320,Tarragona,320,,41.378493,2.145336,,,0,P.6660320,,1,,,5.997739657144,5,1.874737536745,3,919.132467951302
1.321,1.321,"(429050.11874658975, 4580736.2181336675)",1.321,Espanya,321,,41.375018,2.151555,,,0,P.6660122,,2,,,6.087965221053,5,1.987787036448,3,1015.883254051439
1.322,1.322,"(429776.7894014637, 4580726.698782363)",1.322,Poble Sec,322,,41.374996,2.160245,,,0,P.6660322,,1,,,6.157409665498,5,2.09296095372,4,1096.508909134887
1.323,1.323,"(430518.6763055443, 4580708.002093455)",1.323,Paral·lel,323,,41.374892,2.169118,,,0,P.6660210,,1,,,6.209697247197,5,2.185467515211,4,1161.009433201645
1.324,1.324,"(431067.8190297792, 4580885.511341856)",1.324,Drassanes,324,,41.376538,2.175664,,,0,P.6660324,,1,,,6.247197247197,5,2.260397830018,4,1209.384826251713
1.325,1.325,"(430852.75611192174, 4581432.376330834)",1.325,Liceu,325,,41.381445,2.17303,,,0,P.6660325,,1,,,6.27143967144,5,2.313272633059,4,1241.635088285092
1.326,1.326,"(430612.27757680917, 4581976.16138603)",1.326,Catalunya,326,,41.386322,2.170092,,,0,P.6660126,,1,,,6.283344433344,5,2.340648640551,4,1257.760219301782
1.327,1.327,"(430221.1968635111, 4582566.260462742)",1.327,Passeig de Gràcia,327,,41.391603,2.165347,,,0,P.6660213,,1,,,6.283344433344,5,2.340648640551,4,1257.760219301782
1.328,1.328,"(429782.71303390106, 4583046.257030997)",1.328,Diagonal,328,,41.395888,2.160047,,,0,P.6660328,,1,,,6.27143967144,5,2.313272633059,4,1241.635088285092
1.329,1.329,"(429202.0843887986, 4583731.52003286)",1.329,Fontana,329,,41.402009,2.153022,,,0,P.6660329,,1,,,6.247197247197,5,2.260397830018,4,1209.384826251713
1.330,1.330,"(428987.5577286988, 4584147.649749229)",1.330,Lesseps,330,,41.405738,2.150407,,,0,P.6660330,,1,,,6.209697247197,5,2.185467515211,4,1161.009433201645
1.331,1.331,"(428487.0378194522, 4584845.068966985)",1.331,Vallcarca,331,,41.411975,2.144337,,,0,P.6660331,,2,,,6.157409665498,5,2.09296095372,4,1096.508909134887
1.332,1.332,"(428212.7433577172, 4585547.71721974)",1.332,Penitents,332,,41.418279,2.140972,,,0,P.6660332,,1,,,6.087965221053,5,1.987787036448,3,1015.883254051439
1.333,1.333,"(428353.5677120852, 4586323.976547063)",1.333,Vall d'Hebron,333,,41.425283,2.142565,,,0,P.6660333,,1,,,5.997739657144,5,1.874737536745,3,919.132467951302
1.334,1.334,"(428566.1452564293, 4586914.442581291)",1.334,Montbau,334,,41.43062,2.145039,,,0,P.6660334,,1,,,5.881072990477,4,1.758087201125,3,806.256550834476
1.335,1.335,"(428858.4695553892, 4587469.48837292)",1.335,Mundet,335,,41.435645,2.148472,,,0,P.6660335,,1,,,5.728692038096,4,1.641367718893,2,677.255502700959
1.336,1.336,"(429563.3033989763, 4587723.6214216165)",1.336,Valldaura,336,,41.437996,2.156878,,,0,P.6660336,,1,,,5.524146583551,4,1.527295831093,2,532.129323550754
1.337,1.337,"(430361.8193737792, 4588133.138322791)",1.337,Canyelles,337,,41.441754,2.166388,,,0,P.6660337,,1,,,5.234291511087,4,1.417812258972,2,370.878013383859
1.338,1.338,"(431179.2310307033, 4588782.163716648)",1.338,Roquetes,338,,41.44767,2.176098,,,0,P.6660338,,1,,,4.775958177754,3,1.314184784894,1,193.501572200274
1.339,1.339,"(431849.31071363745, 4588979.0000573825)",1.339,Trinitat Nova,339,,41.4495,2.184097,,,0,P.6660339,,1,,,3.815958177754,2,1.217137293087,1,0.0
1.413,1.413,"(433585.19449359796, 4586095.862625211)",1.413,La Pau,413,,41.423678,2.205194,,,0,P.6660221,,1,,,3.645358704763,2,1.208285385501,1,0.0
1.414,1.414,"(434002.27055055386, 4585672.692904373)",1.414,Besòs,414,,41.419901,2.210231,,,0,P.6660414,,1,,,4.597739657144,3,1.322814805927,1,161.251310166895
1.415,1.415,"(434486.3927095293, 4585135.137688695)",1.415,Besòs Mar,415,,41.415099,2.216082,,,0,P.6660415,,1,,,5.047739657144,3,1.446186134977,2,306.377489317101
1.416,1.416,"(434534.03959881037, 4584766.205040951)",1.416,El Maresme | Fòrum,416,,41.41178,2.216692,,,0,P.6660416,,1,,,5.32844141153,4,1.576914825145,2,435.378537450617
1.417,1.417,"(433897.531451334, 4584352.414531008)",1.417,Selva de Mar,417,,41.408001,2.209122,,,0,P.6660417,,1,,,5.522885855974,4,1.712355362274,2,548.254454567443
1.418,1.418,"(433412.4776385263, 4583881.104144853)",1.418,Poblenou,418,,41.403716,2.203371,,,0,P.6660418,,1,,,5.664062326562,4,1.848436583117,3,645.00524066758
1.419,1.419,"(432935.0453115001, 4583409.0885220915)",1.419,Llacuna,419,,41.399425,2.197712,,,0,P.6660419,,1,,,5.768228993229,4,1.979531376246,3,725.630895751028
1.420,1.420,"(432454.0955499172, 4582934.13844801)",1.420,Bogatell,420,,41.395107,2.192012,,,0,P.6660420,,1,,,5.844419469419,4,2.098600932712,4,790.131419817786
1.421,1.421,"(432527.23232212104, 4581998.600303481)",1.421,Ciutadella | Vila Olímpica,421,,41.386687,2.192991,,,0,P.6660421,,2,,,5.897990897991,4,2.19774743347,4,838.506812867855
1.422,1.422,"(431836.21052767907, 4581463.695143138)",1.422,Barceloneta,422,,41.381811,2.184787,,,0,P.6660422,,1,,,5.932178932179,5,2.269218894721,4,870.757074901234
1.423,1.423,"(431315.54855043907, 4581725.642034838)",1.423,Jaume I,423,,41.384126,2.178531,,,0,P.6660423,,1,,,5.948845598846,5,2.306726645047,4,886.882205917923
1.424,1.424,"(430894.3564201156, 4582155.441222288)",1.424,Urquinaona,424,,41.387961,2.173445,,,0,P.6660127,,2,,,5.948845598846,5,2.306726645047,4,886.882205917923
1.425,1.425,"(430428.4722380941, 4582392.6163108)",1.425,Passeig de Gràcia,425,,41.390057,2.167846,,,0,P.6660213,,1,,,5.932178932179,5,2.269218894721,4,870.757074901234
1.426,1.426,"(430682.697716886, 4582930.112003187)",1.426,Girona,426,,41.39492,2.170825,,,0,P.6660426,,1,,,5.897990897991,4,2.19774743347,4,838.506812867855
1.427,1.427,"(430457.3521125219, 4583536.824479062)",1.427,Verdaguer,427,,41.400365,2.16806,,,0,P.6660427,,2,,,5.844419469419,4,2.098600932712,4,790.131419817786
1.428,1.428,"(430059.68703456037, 4584213.7129265005)",1.428,Joanic,428,,41.406427,2.163225,,,0,P.6660428,,1,,,5.768228993229,4,1.979531376246,3,725.630895751028
1.429,1.429,"(430329.91884978523, 4584871.731143243)",1.429,Alfons X,429,,41.412377,2.166382,,,0,P.6660429,,1,,,5.664062326562,4,1.848436583117,3,645.00524066758
1.430,1.430,"(430969.47950190486, 4585263.642986185)",1.430,Guinardó | Hospital de Sant Pau ,430,,41.415962,2.173989,,,0,P.6660430,,1,,,5.522885855974,4,1.712355362274,2,548.254454567443
1.431,1.431,"(431261.8234073131, 4586053.830241382)",1.431,Maragall,431,,41.423104,2.177397,,,0,P.6660431,,2,,,5.32844141153,4,1.576914825145,2,435.378537450617
1.432,1.432,"(430937.7744762439, 4587598.114673385)",1.432,Llucmajor,432,,41.436985,2.173343,,,0,P.6660432,,1,,,5.047739657144,3,1.446186134977,2,306.377489317101
1.433,1.433,"(431379.89776768343, 4588342.799920856)",1.433,Via Júlia,433,,41.44373,2.17855,,,0,P.6660433,,1,,,4.597739657144,3,1.322814805927,1,161.251310166895
1.434,1.434,"(431710.0418213426, 4588942.120147581)",1.434,Trinitat Nova,434,,41.449156,2.182434,,,0,P.6660339,,1,,,3.645358704763,2,1.208285385501,1,0.0
1.509,1.509,"(422244.8235086432, 4578837.666885896)",1.509,Cornellà Centre,509,,41.35729,2.070428,,,0,P.6660509,,1,,,3.815958177754,2,1.217137293087,1,0.0
1.510,1.510,"(422985.17669175006, 4578907.82194268)",1.510,Gavarra,510,,41.357993,2.079269,,,0,P.6660510,,1,,,4.775958177754,3,1.314184784894,1,193.501572200274
1.511,1.511,"(423420.09698132036, 4579501.449708378)",1.511,Sant Ildefons,511,,41.363381,2.084393,,,0,P.6660511,,1,,,5.234291511087,4,1.417812258972,2,370.878013383859
1.512,1.512,"(424018.73465292994, 4579849.339461681)",1.512,Can Boixeres,512,,41.366571,2.091506,,,0,P.6660512,,1,,,5.524146583551,4,1.527295831093,2,532.129323550754
1.513,1.513,"(424688.1443964377, 4580365.0860138135)",1.513,Can Vidalet,513,,41.371279,2.099445,,,0,P.6660513,,1,,,5.728692038096,4,1.641367718893,2,677.255502700959
1.514,1.514,"(425340.3672125774, 4580642.4655534)",1.514,Pubilla Cases,514,,41.373838,2.107209,,,0,P.6660514,,1,,,5.881072990477,4,1.758087201125,3,806.256550834476
1.515,1.515,"(426344.8556384777, 4580843.700702071)",1.515,Collblanc,515,,41.375743,2.119195,,,0,P.6660515,,1,,,5.997739657144,5,1.874737536745,3,919.132467951302
1.516,1.516,"(427030.97153189144, 4580818.773906724)",1.516,Badal,516,,41.375581,2.127402,,,0,P.6660516,,1,,,6.087965221053,5,1.987787036448,3,1015.883254051439
1.517,1.517,"(427679.801138822, 4580828.481156089)",1.517,Plaça de Sants,517,,41.375727,2.135159,,,0,P.6660120,,2,,,6.157409665498,5,2.09296095372,4,1096.508909134887
1.518,1.518,"(428122.55920018227, 4581293.508776696)",1.518,Sants Estació,518,,41.379955,2.140398,,,0,P.6660319,,1,,,6.209697247197,5,2.185467515211,4,1161.009433201645
1.519,1.519,"(428564.06664152886, 4581790.107148269)",1.519,Entença,519,,41.384467,2.145619,,,0,P.6660519,,1,,,6.247197247197,5,2.260397830018,4,1209.384826251713
1.520,1.520,"(429025.25969848817, 4582245.346722728)",1.520,Hospital Clínic,520,,41.388608,2.151081,,,0,P.6660520,,1,,,6.27143967144,5,2.313272633059,4,1241.635088285092
1.521,1.521,"(429679.4088380796, 4582885.933960016)",1.521,Diagonal,521,,41.394435,2.15883,,,0,P.6660328,,1,,,6.283344433344,5,2.340648640551,4,1257.760219301782
1.522,1.522,"(430374.6764166586, 4583380.734951902)",1.522,Verdaguer,522,,41.398952,2.167089,,,0,P.6660427,,2,,,6.283344433344,5,2.340648640551,4,1257.760219301782
1.523,1.523,"(430925.62952526833, 4583917.612785992)",1.523,Sagrada Família,523,,41.403835,2.173618,,,0,P.6660216,,1,,,6.27143967144,5,2.313272633059,4,1241.635088285092
1.524,1.524,"(431133.3775677729, 4584683.731656686)",1.524,Sant Pau | Dos de Maig,524,,41.410753,2.176016,,,0,P.6660524,,1,,,6.247197247197,5,2.260397830018,4,1209.384826251713
1.525,1.525,"(431595.98921103, 4585157.546688941)",1.525,Camp de l'Arpa,525,,41.41506,2.181497,,,0,P.6660525,,1,,,6.209697247197,5,2.185467515211,4,1161.009433201645
1.526,1.526,"(432027.4595413676, 4585845.857372938)",1.526,La Sagrera,526,,41.421296,2.186582,,,0,P.6660133,,1,,,6.157409665498,5,2.09296095372,4,1096.508909134887
1.527,1.527,"(431578.7944777379, 4586088.131861263)",1.527,Congrés,527,,41.42344,2.181186,,,0,P.6660527,,1,,,6.087965221053,5,1.987787036448,3,1015.883254051439
1.528,1.528,"(431187.66374102794, 4586270.042744899)",1.528,Maragall,528,,41.425045,2.176485,,,0,P.6660431,,2,,,5.997739657144,5,1.874737536745,3,919.132467951302
1.529,1.529,"(431061.23510017595, 4586788.420667455)",1.529,Virrei Amat,529,,41.429703,2.174913,,,0,P.6660529,,1,,,5.881072990477,4,1.758087201125,3,806.256550834476
1.530,1.530,"(430452.60502535885, 4586878.850711696)",1.530,Vilapicina,530,,41.430465,2.167619,,,0,P.6660530,,1,,,5.728692038096,4,1.641367718893,2,677.255502700959
1.531,1.531,"(429813.0088801115, 4586799.201979198)",1.531,Horta,531,,41.429692,2.159974,,,0,P.6660531,,1,,,5.524146583551,4,1.527295831093,2,532.129323550754
1.532,1.532,"(429400.0038470702, 4586221.202310813)",1.532,El Carmel,532,,41.42445,2.155099,,,0,P.6660532,,1,,,5.234291511087,4,1.417812258972,2,370.878013383859
1.533,1.533,"(428833.2061146752, 4585954.3984478265)",1.533,El Coll | La Teixonera,533,,41.421997,2.148348,,,0,P.6660533,,1,,,4.775958177754,3,1.314184784894,1,193.501572200274
1.534,1.534,"(428335.78482464526, 4586291.953909245)",1.534,Vall d'Hebron,534,,41.424993,2.142356,,,0,P.6660333,,1,,,3.815958177754,2,1.217137293087,1,0.0
1.930,1.930,"(432038.4059931195, 4585756.709433307)",1.930,La Sagrera,930,,41.420494,2.186723,,,0,P.6660133,,1,,,3.50119047619,2,1.595464135021,2,0.0
1.932,1.932,"(432619.45247883734, 4586757.751363955)",1.932,Onze de Setembre,932,,41.429559,2.193564,,,0,P.6660932,,1,,,4.67619047619,3,2.015323117921,3,80.625655083448
1.933,1.933,"(433606.31361587107, 4587486.300812088)",1.933,Bon Pastor,933,,41.436203,2.205294,,,0,P.6660933,,1,,,5.783333333333,4,2.552742616034,5,290.252358300411
1.940,1.940,"(434009.62033268576, 4588346.74520264)",1.940,Can Peixauet,940,,41.443986,2.210027,,,0,P.6660940,,1,,,5.2,4,2.552742616034,5,241.876965250343
1.941,1.941,"(434495.50408385193, 4588660.312829317)",1.941,Santa Rosa,941,,41.44685,2.215809,,,0,P.6660941,,1,,,4.95,3,2.393196202532,4,225.751834233653
1.942,1.942,"(434724.07401050307, 4589216.274946978)",1.942,Fondo,942,,41.451876,2.218485,,,0,P.6660140,,1,,,4.733333333333,3,2.127285513361,4,193.501572200274
1.943,1.943,"(434200.1471664428, 4589545.340106381)",1.943,Església Major,943,,41.454797,2.212177,,,0,P.6660943,,1,,,4.459523809524,3,1.823387582881,3,145.126179150206
1.944,1.944,"(433641.2476328581, 4590062.959671763)",1.944,Singuerlín,944,,41.459413,2.205429,,,0,P.6660944,,1,,,4.027380952381,2,1.53164556962,2,80.625655083448
1.945,1.945,"(433065.50426766986, 4589763.271997185)",1.945,Can Zam,945,,41.456666,2.198569,,,0,P.6660945,,1,,,3.096825396825,1,1.276371308017,1,0.0
1.901,1.901,"(422223.38450388855, 4571177.3567523165)",1.901,Aeroport T1,901,,41.288295,2.071152,,,0,P.6660901,,1,,,3.612413974914,2,1.305605786618,1,0.0
1.903,1.903,"(422405.99569801113, 4572899.47568246)",1.903,Aeroport T2,903,,41.303823,2.073113,,,0,P.6660903,,1,,,4.569394494394,3,1.455293074256,2,145.126179150206
1.904,1.904,"(422444.7383962503, 4573720.905968458)",1.904,Mas Blau,904,,41.311225,2.073471,,,0,P.6660904,,1,,,5.025804750805,3,1.620432713888,2,274.127227283722
1.905,1.905,"(423661.265356444, 4574307.9131892845)",1.905,Parc Nou,905,,41.316628,2.087929,,,0,P.6660905,,1,,,5.315487290487,4,1.799063091797,3,387.003144400548
1.906,1.906,"(424130.97715145577, 4574927.199733555)",1.906,Cèntric,906,,41.32225,2.093463,,,0,P.6660906,,1,,,5.522655122655,4,1.986791414419,3,483.753930500685
1.907,1.907,"(423846.3886999238, 4576011.942500472)",1.907,El Prat Estació,907,,41.331993,2.089927,,,0,P.6660907,,1,,,5.682178932179,4,2.176009644364,4,564.379585584133
1.909,1.909,"(424943.14017424674, 4575681.4206767585)",1.909,Les Moreres,909,,41.329119,2.103073,,,0,P.6660909,,1,,,5.813492063492,4,2.355474357301,4,628.880109650891
1.910,1.910,"(425632.71743973217, 4576159.077919558)",1.910,Mercabarna,910,,41.333485,2.111254,,,0,P.6660910,,1,,,5.931349206349,5,2.510780358882,5,677.255502700959
1.911,1.911,"(426992.99243641976, 4577053.374504034)",1.911,Parc Logístic,911,,41.341664,2.127401,,,0,P.6660911,,1,,,6.052380952381,5,2.626218536301,5,709.505764734339
1.912,1.912,"(427259.7523887404, 4578196.95905128)",1.912,Fira,912,,41.351988,2.130452,,,0,P.6660912,,1,,,6.205158730159,5,2.688011913626,5,725.630895751028
1.913,1.913,"(426887.2037453345, 4578819.35961724)",1.913,Europa | Fira,913,,41.35756,2.125924,,,0,P.6660913,,1,,,6.462301587302,5,2.688011913626,5,725.630895751028
1.914,1.914,"(426227.5673862474, 4579196.212123457)",1.914,Can Tries | Gornal,914,,41.360894,2.117993,,,0,P.6660914,,1,,,7.136544011544,5,2.626218536301,5,830.44424735951
1.915,1.915,"(426048.7583072818, 4580011.770671169)",1.915,Torrassa,915,,41.368223,2.115756,,,0,P.6660117,,1,,,6.053210678211,5,2.262188244141,4,274.127227283722
1.916,1.916,"(426278.47762908164, 4580879.127922312)",1.916,Collblanc,916,,41.376056,2.118397,,,0,P.6660515,,1,,,5.272990897991,4,1.952829168019,3,145.126179150206
1.918,1.918,"(425720.5948777128, 4581738.20207267)",1.918,Zona Universitària,918,,41.383742,2.111621,,,0,P.6660314,,1,,,4.136086136086,2,1.692451945617,2,0.0
1.934,1.934,"(434581.62453858164, 4588049.9867795715)",1.934,Llefià,934,,41.44136,2.216906,,,0,P.6660934,,1,,,4.92619047619,3,2.127285513361,4,145.126179150206
1.935,1.935,"(435237.26706266584, 4588205.853362053)",1.935,La Salut,935,,41.442817,2.224737,,,0,P.6660935,,1,,,4.30119047619,3,1.740506329114,3,80.625655083448
1.936,1.936,"(435999.71662295127, 4587935.484444871)",1.936,Gorg,936,,41.440443,2.233892,,,0,P.6660225,,1,,,3.278968253968,2,1.418190342241,2,0.0
1.954,1.954,"(428463.87138835195, 4577184.394843596)",1.954,Zona Franca,954,,41.342976,2.144964,,,0,P.6660954,,1,,,3.815252802753,2,1.455293074256,2,0.0
1.956,1.956,"(428213.97490740253, 4578650.776486402)",1.956,Foc,956,,41.356161,2.141804,,,0,P.6660956,,1,,,4.827752802753,3,1.643748292505,2,145.126179150206
1.957,1.957,"(427920.38063456904, 4579201.9495128915)",1.957,Foneria,957,,41.361099,2.138229,,,0,P.6660957,,1,,,5.368228993229,4,1.857569208603,3,274.127227283722
1.958,1.958,"(427427.98571259005, 4579433.138103208)",1.958,Ciutat de la Justícia,958,,41.363137,2.132315,,,0,P.6660958,,1,,,5.7968004218,4,2.096156079433,4,387.003144400548
1.959,1.959,"(426738.8874023492, 4579242.101994327)",1.959,Provençana,959,,41.361354,2.1241,,,0,P.6660959,,1,,,6.269877344877,5,2.355474357301,4,483.753930500685
1.1136,1.1136,"(431704.4079908648, 4588947.058666405)",1.1136,Trinitat Nova,1136,,41.4492,2.182366,,,0,P.6660339,,1,,,2.083333333333,1,1.012658227848,1,0.0
1.1137,1.1137,"(431913.23166801163, 4589175.808130059)",1.1137,Casa de l'Aigua,1137,,41.451278,2.18484,,,0,P.6661137,,1,,,2.833333333333,1,1.446654611212,2,24.187696525034
1.1138,1.1138,"(431507.60565894295, 4590058.77310724)",1.1138,Torre Baró | Vallbona,1138,,41.459196,2.179884,,,0,P.6661138,,1,,,3.0,1,1.68776371308,2,32.250262033379
1.1139,1.1139,"(431072.1887739056, 4590241.893166578)",1.1139,Ciutat Meridiana,1139,,41.460808,2.17465,,,0,P.6661139,,1,,,2.833333333333,1,1.446654611212,2,24.187696525034
1.1140,1.1140,"(430941.020665253, 4590421.348643938)",1.1140,Can Cuiàs,1140,,41.462413,2.173059,,,0,P.6661140,,1,,,2.083333333333,1,1.012658227848,1,0.0
