StopCode,StopCode,location,stop_id,stop_name,stop_code,stop_desc,stop_lat,stop_lon,zone_id,stop_url,location_type,parent_station,stop_timezone,wheelchair_boarding,level_id,platform_code,HarmCen,CatHarmCen,Clossnes,CatClossnes,BetCen
at:49:949:0:1,at:49:949:0:1,"(604162.8328971787, 5333055.747275224)",at:49:949:0:1,Oberlaa,,,48.1422207670867,16.4002367172564,0100,,,,,,,,0,1,0.0,1,0.0
at:49:1481:0:1,at:49:1481:0:1,"(603104.3830629115, 5333442.432106135)",at:49:1481:0:1,Neulaa,,,48.1458711740453,16.3861062178353,0100,,,,,,,,1.0,2,0.460829493088,2,98.139614268647
at:49:14:0:8,at:49:14:0:8,"(602810.7177061595, 5334310.739993592)",at:49:14:0:8,Alaudagasse,,,48.1537285583183,16.3823692262528,0270,,,,,,,,1.5,2,0.614439324117,3,192.012288786482
at:49:33:0:9,at:49:33:0:9,"(602889.3347812287, 5335215.593913884)",at:49:33:0:9,Altes Landgut,,,48.1618543811867,16.3836448339564,0270,,,,,,,,1.833333333333,2,0.691244239631,3,281.618023553507
at:49:1573:0:1,at:49:1573:0:1,"(602647.6591646093, 5335948.020698072)",at:49:1573:0:1,Troststraße,,,48.1684811274236,16.3805725956843,0100,,,,,,,,2.083333333333,3,0.73732718894,4,366.956818569722
at:49:1095:0:6,at:49:1095:0:6,"(602442.5699767752, 5336655.041919229)",at:49:1095:0:6,Reumannplatz,,,48.1748733885639,16.3779854476657,0280,,,,,,,,2.283333333333,3,0.768049155146,4,448.028673835126
at:49:666:0:4,at:49:666:0:4,"(602306.2204730378, 5337144.109928851)",at:49:666:0:4,Keplerplatz,,,48.1792941864331,16.3762696654728,0100,,,,,,,,2.45,3,0.789993416722,4,524.833589349718
at:49:1349:0:3,at:49:1349:0:3,"(602090.8577918066, 5338019.276791669)",at:49:1349:0:3,Südtiroler Pl. - Hbf.,,,48.1872003539411,16.3735837027729,0280,,,,,,,,2.592857142857,3,0.806451612903,4,597.371565113501
at:49:1366:0:4,at:49:1366:0:4,"(601841.429002484, 5338748.56812308)",at:49:1366:0:4,Taubstummengasse,,,48.193799871925,16.3704036666667,0100,,,,,,,,2.717857142857,3,0.819252432156,4,665.642601126472
at:49:657:0:15,at:49:657:0:15,"(601715.1970076169, 5339574.49678966)",at:49:657:0:15,Karlsplatz,,,48.2012487603007,16.368903480142,0100,,,,,,,,2.828968253968,3,0.829493087558,4,729.646697388633
at:49:1320:0:6,at:49:1320:0:6,"(601906.5924685701, 5340335.415990198)",at:49:1320:0:6,Stephansplatz,,,48.2080619878123,16.3716613080646,0100,,,,,,,,2.928968253968,3,0.837871805614,4,789.383853899983
at:49:1198:0:23,at:49:1198:0:23,"(602376.8243017887, 5340768.4704150455)",at:49:1198:0:23,Schwedenplatz,,,48.2118813094012,16.3780932454998,0100,,,,,,,,3.019877344877,4,0.844854070661,5,844.854070660522
at:49:916:0:5,at:49:916:0:5,"(602921.2620313445, 5341154.289970888)",at:49:916:0:5,Nestroyplatz,,,48.2152633861515,16.3855133297477,0100,,,,,,,,3.103210678211,4,0.850762141085,5,896.057347670251
at:49:1040:0:1,at:49:1040:0:1,"(603368.7002062611, 5341584.964099107)",at:49:1040:0:1,Praterstern,,,48.2190642146426,16.3916398399862,0100,,,,,,,,3.180133755134,4,0.855826201448,5,942.993684929169
at:49:1433:0:6,at:49:1433:0:6,"(604068.619936278, 5342110.740801184)",at:49:1433:0:6,Vorgartenstraße,,,48.2236786995563,16.4011889314577,0100,,,,,,,,3.251562326562,4,0.860215053763,5,985.663082437276
at:49:234:0:3,at:49:234:0:3,"(604814.6356341913, 5342735.880084187)",at:49:234:0:3,Donauinsel,,,48.2291784306493,16.4113848099339,0100,,,,,,,,3.318228993229,4,0.864055299539,5,1024.065540194572
at:49:641:0:7,at:49:641:0:7,"(605173.5676321723, 5343139.018200894)",at:49:641:0:7,Kaisermühlen-VIC,,,48.2327448609057,16.4163165608444,0100,,,,,,,,3.380728993229,4,0.867443751694,5,1058.201058201058
at:49:31:0:6,at:49:31:0:6,"(605780.0763393829, 5343753.630635172)",at:49:31:0:6,Alte Donau,,,48.2381718206084,16.4246349603765,0100,,,,,,,,3.439552522641,4,0.870455709165,5,1088.069636456733
at:49:627:0:18,at:49:627:0:18,"(606405.860251569, 5344329.363482144)",at:49:627:0:18,Kagran,,,48.2432452380004,16.4332048881882,0100,,,,,,,,3.495108078196,4,0.873150618482,5,1113.671274961597
at:49:633:0:7,at:49:633:0:7,"(607151.8708832075, 5345138.824457595)",at:49:633:0:7,Kagraner Platz,,,48.2503998157629,16.4434546655814,0100,,,,,,,,3.547739657144,4,0.875576036866,5,1135.005973715651
at:49:1860:0:3,at:49:1860:0:3,"(607595.6249275773, 5345943.229646312)",at:49:1860:0:3,Rennbahnweg,,,48.2575593735153,16.449635074737,0100,,,,,,,,3.597739657144,4,0.877770463024,5,1152.073732718894
at:49:1858:0:1,at:49:1858:0:1,"(607735.3352745147, 5346596.856016143)",at:49:1858:0:1,Aderklaaer Straße,,,48.2634142732416,16.4516832335851,0200,,,,,,,,3.645358704763,4,0.879765395894,5,1164.874551971326
at:49:1859:0:3,at:49:1859:0:3,"(607440.6994536989, 5347438.326873097)",at:49:1859:0:3,Großfeldsiedlung,,,48.2710324134144,16.447928275697,0100,,,,,,,,3.690813250217,4,0.881586856341,5,1173.408431472948
at:49:769:0:6,at:49:769:0:6,"(607712.9406616039, 5348168.735814374)",at:49:769:0:6,Leopoldau,,,48.2775553655484,16.4517820482664,0210,,,,,,,,3.734291511087,4,0.883256528418,5,564.302782044718
at:49:769:0:5,at:49:769:0:5,"(607714.3867419853, 5348162.780590435)",at:49:769:0:5,Leopoldau,,,48.2775015590838,16.4518000145721,0210,,,,,,,,3.734291511087,4,0.883256528418,5,564.302782044718
at:49:1859:0:4,at:49:1859:0:4,"(607432.7508596692, 5347435.517682425)",at:49:1859:0:4,Großfeldsiedlung,,,48.271008496384,16.4478204778629,0100,,,,,,,,4.775958177754,5,0.956871871029,5,1173.408431472948
at:49:1858:0:2,at:49:1858:0:2,"(607725.335369003, 5346596.666920626)",at:49:1858:0:2,Aderklaaer Straße,,,48.2634142732416,16.4515484862925,0200,,,,,,,,4.315958177754,5,0.952662805282,5,1164.874551971326
at:49:1860:0:5,at:49:1860:0:5,"(607589.5615418348, 5345946.440097138)",at:49:1860:0:5,Rennbahnweg,,,48.2575892776691,16.4495542263615,0100,,,,,,,,4.187753049548,5,0.948996328985,5,1152.073732718894
at:49:633:0:9,at:49:633:0:9,"(607144.4857620987, 5345141.345937471)",at:49:633:0:9,Kagraner Platz,,,48.2504237424373,16.4433558509002,0100,,,,,,,,4.141456753252,5,0.945786184766,5,1135.005973715651
at:49:627:0:9,at:49:627:0:9,"(606401.7842523628, 5344333.278412569)",at:49:627:0:9,Kagran,,,48.2432811330289,16.4331509892712,0100,,,,,,,,4.127171038966,5,0.942962539384,5,1113.671274961597
at:49:31:0:2,at:49:31:0:2,"(605776.6673757129, 5343757.558777677)",at:49:31:0:2,Alte Donau,,,48.2382077191971,16.4245900446123,0100,,,,,,,,4.128320464254,5,0.94046835324,5,1088.069636456733
at:49:641:0:5,at:49:641:0:5,"(605169.4548929516, 5343144.930037343)",at:49:641:0:5,Kaisermühlen-VIC,,,48.2327987144911,16.4162626619274,0100,,,,,,,,4.137844273778,5,0.938256658596,5,1058.201058201058
at:49:234:0:2,at:49:234:0:2,"(604807.1385828268, 5342744.391770454)",at:49:234:0:2,Donauinsel,,,48.2292562245649,16.4112859952526,0100,,,,,,,,4.152245195437,5,0.936288493892,5,1024.065540194572
at:49:1433:0:3,at:49:1433:0:3,"(604065.223374571, 5342114.005895346)",at:49:1433:0:3,Vorgartenstraße,,,48.2237086235224,16.4011440156935,0100,,,,,,,,4.169606306548,5,0.934531318384,5,985.663082437276
at:49:1040:0:11,at:49:1040:0:11,"(603363.9451764333, 5341589.536228537)",at:49:1040:0:11,Praterstern,,,48.219106111967,16.3915769579163,0100,,,,,,,,4.18879822574,5,0.932957782853,5,942.993684929169
at:49:916:0:3,at:49:916:0:3,"(602919.1521808708, 5341160.241546469)",at:49:916:0:3,Nestroyplatz,,,48.2153172581329,16.3854863802891,0100,,,,,,,,4.209119081355,5,0.93154476738,5,896.057347670251
at:49:1198:0:13,at:49:1198:0:13,"(602375.394162301, 5340773.769206601)",at:49:1198:0:13,Schwedenplatz,,,48.2119291987728,16.3780752791941,0100,,,,,,,,4.23011475235,5,0.93027262156,5,844.854070660522
at:49:1320:0:2,at:49:1320:0:2,"(601898.4888520633, 5340340.596150236)",at:49:1320:0:2,Stephansplatz,,,48.2081098807556,16.3715535102305,0100,,,,,,,,4.251482273718,5,0.929124559701,5,789.383853899983
at:49:657:0:8,at:49:657:0:8,"(601721.907289973, 5339572.619263365)",at:49:657:0:8,Karlsplatz,,,48.2012307980463,16.3689933116704,0100,,,,,,,,4.27301479525,5,0.928086175758,5,729.646697388633
at:49:1366:0:1,at:49:1366:0:1,"(601833.441919253, 5338747.094129617)",at:49:1366:0:1,Taubstummengasse,,,48.1937878953483,16.3702958688326,0100,,,,,,,,4.294568679962,5,0.927145051569,5,665.642601126472
at:49:1349:0:11,at:49:1349:0:11,"(602084.8726983514, 5338017.838086803)",at:49:1349:0:11,Südtiroler Pl. - Hbf.,,,48.1871883758219,16.3735028543973,0280,,,,,,,,4.316043038936,5,0.926290438367,5,597.371565113501
at:49:666:0:2,at:49:666:0:2,"(602294.9401243103, 5337139.912122043)",at:49:666:0:2,Keplerplatz,,,48.1792582465239,16.3761169518745,0100,,,,,,,,4.337366568348,5,0.925512996273,5,524.833589349718
at:49:1095:0:13,at:49:1095:0:13,"(602435.9276405999, 5336652.924759108)",at:49:1095:0:13,Reumannplatz,,,48.174855417063,16.3778956161373,0280,,,,,,,,4.358488838394,5,0.924804579985,5,448.028673835126
at:49:1573:0:2,at:49:1573:0:2,"(602642.3399039289, 5335946.592950182)",at:49:1573:0:2,Troststraße,,,48.1684691449301,16.3805007304616,0100,,,,,,,,4.379374385596,5,0.924158061517,5,366.956818569722
at:49:33:0:8,at:49:33:0:8,"(602880.0309555295, 5335212.761688753)",at:49:33:0:8,Altes Landgut,,,48.1618304131003,16.3835190698166,0270,,,,,,,,4.399998620602,5,0.923567182834,5,281.618023553507
at:49:14:0:9,at:49:14:0:9,"(602806.0530604786, 5334309.989835591)",at:49:14:0:9,Alaudagasse,,,48.1537225653486,16.3823063441829,0270,,,,,,,,4.420344940948,5,0.923026432742,5,192.012288786482
at:49:1481:0:2,at:49:1481:0:2,"(603102.4985566875, 5333435.734059358)",at:49:1481:0:2,Neulaa,,,48.1458112351407,16.3860792683767,0100,,,,,,,,4.440402661006,5,0.922530943589,5,98.139614268647
at:49:949:0:2,at:49:949:0:2,"(604160.9252179067, 5333050.380871546)",at:49:949:0:2,Oberlaa,,,48.1421728125584,16.4002097677979,0100,,,,,,,,4.460165506856,5,0.922076404194,5,0.0
at:49:942:0:4,at:49:942:0:4,"(612033.4529200431, 5342529.758678591)",at:49:942:0:4,Seestadt,,,48.2260905151095,16.5085016753136,0100,,,,,,,,0,1,0.0,1,0.0
at:49:910:0:6,at:49:910:0:6,"(611734.7100040718, 5343470.699345589)",at:49:910:0:6,Aspern Nord,,,48.2346057686081,16.5047287511198,0290,,,,,,,,1.0,2,0.460829493088,2,38.402457757296
at:49:487:0:3,at:49:487:0:3,"(610322.2859659592, 5343321.45037547)",at:49:487:0:3,Hausfeldstraße,,,48.2335107732357,16.4856754839409,0290,,,,,,,,1.5,2,0.614439324117,3,72.537975763782
at:49:299:0:10,at:49:299:0:10,"(609537.054216665, 5342095.996739881)",at:49:299:0:10,Aspernstraße,,,48.222625364802,16.4747879026959,0290,,,,,,,,1.833333333333,2,0.691244239631,3,102.406554019457
at:49:1278:0:11,at:49:1278:0:11,"(608863.596915164, 5341747.048062466)",at:49:1278:0:11,Donauspital,,,48.2196028919135,16.4656340699494,0100,,,,,,,,2.083333333333,3,0.73732718894,4,128.008192524322
at:49:473:0:11,at:49:473:0:11,"(608233.9637171363, 5341898.775328623)",at:49:473:0:11,Hardeggasse,,,48.2210752475339,16.4571988894304,0100,,,,,,,,2.283333333333,3,0.768049155146,4,149.342891278375
at:49:1299:0:2,at:49:1299:0:2,"(607627.7739847546, 5341729.592495111)",at:49:1299:0:2,Stadlau,,,48.2196567593289,16.4489972708852,0290,,,,,,,,2.45,3,0.789993416722,4,166.410650281618
at:49:290:0:8,at:49:290:0:8,"(606968.4423412862, 5340832.7116025565)",at:49:290:0:8,Donaustadtbrücke,,,48.2117017238592,16.4398973370558,0100,,,,,,,,2.592857142857,3,0.806451612903,4,179.21146953405
at:49:282:0:4,at:49:282:0:4,"(606334.2736773834, 5340222.479762822)",at:49:282:0:4,Donaumarina,,,48.2063198515553,16.4312106282572,0100,,,,,,,,2.717857142857,3,0.819252432156,4,187.745349035672
at:49:1894:0:5,at:49:1894:0:5,"(605513.325810541, 5340715.107274554)",at:49:1894:0:5,Stadion,,,48.2108875948357,16.4202871144008,0100,,,,,,,,2.828968253968,3,0.829493087558,4,192.012288786482
at:49:1893:0:4,at:49:1893:0:4,"(605027.5483767814, 5341138.757614502)",at:49:1893:0:4,Krieau,,,48.2147785357682,16.4138551769656,0100,,,,,,,,2.928968253968,3,0.837871805614,4,192.012288786482
at:49:1892:0:7,at:49:1892:0:7,"(604364.1311763468, 5341462.002232191)",at:49:1892:0:7,Messe-Prater,,,48.2177953080034,16.4050067714158,0100,,,,,,,,3.019877344877,4,0.844854070661,5,187.745349035672
at:49:1040:0:17,at:49:1040:0:17,"(603498.3582025174, 5341538.735066079)",at:49:1040:0:17,Praterstern,,,48.2186272833596,16.3933735884848,0100,,,,,,,,3.103210678211,4,0.850762141085,5,179.21146953405
at:49:1891:0:5,at:49:1891:0:5,"(602603.7329530662, 5341588.459596833)",at:49:1891:0:5,Taborstraße,,,48.2192198331031,16.3813451468288,0100,,,,,,,,3.180133755134,4,0.855826201448,5,166.410650281618
at:49:1182:0:11,at:49:1182:0:11,"(601920.8051896314, 5341371.255138627)",at:49:1182:0:11,Schottenring,,,48.2173763224892,16.3721014825539,0100,,,,,,,,3.251562326562,4,0.860215053763,5,149.342891278375
at:49:1184:0:19,at:49:1184:0:19,"(601237.3666122537, 5341104.870102672)",at:49:1184:0:19,Schottentor,,,48.2150897982703,16.3628398519733,0100,,,,,,,,3.318228993229,4,0.864055299539,5,128.008192524322
at:49:1072:0:3,at:49:1072:0:3,"(600702.046115935, 5340612.219621516)",at:49:1072:0:3,Rathaus,,,48.2107439236644,16.3555185824067,0100,,,,,,,,3.380728993229,4,0.867443751694,5,102.406554019457
at:49:1430:0:10,at:49:1430:0:10,"(600866.0939107665, 5340017.407989193)",at:49:1430:0:10,Volkstheater,,,48.2053679376369,16.3575847075605,0100,,,,,,,,3.439552522641,4,0.870455709165,5,72.537975763782
at:49:835:0:4,at:49:835:0:4,"(601123.3165117489, 5339743.050666559)",at:49:835:0:4,Museumsquartier,,,48.2028593501803,16.3609803393349,0100,,,,,,,,3.495108078196,4,0.873150618482,5,38.402457757296
at:49:657:0:13,at:49:657:0:13,"(601737.7927390875, 5339542.946145059)",at:49:657:0:13,Karlsplatz,,,48.2009613634738,16.3691999241858,0100,,,,,,,,3.547739657144,4,0.875576036866,5,0.0
at:49:657:0:10,at:49:657:0:10,"(601739.6528681676, 5339550.967612153)",at:49:657:0:10,Karlsplatz,,,48.2010332128317,16.3692268736443,0100,,,,,,,,0,1,0.0,1,0.0
at:49:835:0:3,at:49:835:0:3,"(601129.2174835643, 5339749.146189268)",at:49:835:0:3,Museumsquartier,,,48.2029132352116,16.3610611877105,0100,,,,,,,,1.0,2,0.460829493088,2,38.402457757296
at:49:1430:0:3,at:49:1430:0:3,"(600903.96330852, 5339990.12050199)",at:49:1430:0:3,Volkstheater,,,48.2051164857235,16.3580877641197,0100,,,,,,,,1.5,2,0.614439324117,3,72.537975763782
at:49:1072:0:5,at:49:1072:0:5,"(600696.4307708774, 5340514.281785561)",at:49:1072:0:5,Rathaus,,,48.209863928945,16.3554197677255,0100,,,,,,,,1.833333333333,2,0.691244239631,3,102.406554019457
at:49:1184:0:8,at:49:1184:0:8,"(601241.5001904713, 5341097.622814084)",at:49:1184:0:8,Schottentor,,,48.2150239544373,16.3628937508904,0100,,,,,,,,2.083333333333,3,0.73732718894,4,128.008192524322
at:49:1182:0:17,at:49:1182:0:17,"(601933.0654558116, 5341357.498960142)",at:49:1182:0:17,Schottenring,,,48.2172506261664,16.3722631793051,0100,,,,,,,,2.283333333333,3,0.768049155146,4,149.342891278375
at:49:1891:0:9,at:49:1891:0:9,"(602605.842327252, 5341582.508364153)",at:49:1891:0:9,Taborstraße,,,48.219165965228,16.3813720962873,0100,,,,,,,,2.45,3,0.789993416722,4,166.410650281618
at:49:1040:0:9,at:49:1040:0:9,"(603496.5133287003, 5341530.050445699)",at:49:1040:0:9,Praterstern,,,48.2185494732879,16.3933466390263,0100,,,,,,,,2.592857142857,3,0.806451612903,4,179.21146953405
at:49:1892:0:2,at:49:1892:0:2,"(604362.9061696499, 5341455.990439539)",at:49:1892:0:2,Messe-Prater,,,48.2177414386293,16.4049888051101,0100,,,,,,,,2.717857142857,3,0.819252432156,4,187.745349035672
at:49:1893:0:3,at:49:1893:0:3,"(605017.7838217095, 5341125.267331783)",at:49:1893:0:3,Krieau,,,48.2146588189174,16.4137204296729,0100,,,,,,,,2.828968253968,3,0.829493087558,4,192.012288786482
at:49:1894:0:2,at:49:1894:0:2,"(605504.7979186174, 5340706.962659224)",at:49:1894:0:2,Stadion,,,48.2108157593004,16.4201703334138,0100,,,,,,,,2.928968253968,3,0.837871805614,4,192.012288786482
at:49:282:0:2,at:49:282:0:2,"(606342.4932471261, 5340211.316940535)",at:49:282:0:2,Donaumarina,,,48.2062180754401,16.4313184260913,0100,,,,,,,,3.019877344877,4,0.844854070661,5,187.745349035672
at:49:290:0:4,at:49:290:0:4,"(606974.5605754142, 5340826.836087508)",at:49:290:0:4,Donaustadtbrücke,,,48.2116478480737,16.4399781854314,0100,,,,,,,,3.103210678211,4,0.850762141085,5,179.21146953405
at:49:1299:0:6,at:49:1299:0:6,"(607633.9547362027, 5341720.392412397)",at:49:1299:0:6,Stadlau,,,48.2195729655472,16.4490781192608,0290,,,,,,,,3.180133755134,4,0.855826201448,5,166.410650281618
at:49:473:0:4,at:49:473:0:4,"(608232.2523212337, 5341883.437260075)",at:49:473:0:4,Hardeggasse,,,48.2209375900631,16.4571719399719,0100,,,,,,,,3.251562326562,4,0.860215053763,5,149.342891278375
at:49:1278:0:4,at:49:1278:0:4,"(608861.7856079169, 5341737.031271239)",at:49:1278:0:4,Donauspital,,,48.219513112762,16.4656071204909,0100,,,,,,,,3.318228993229,4,0.864055299539,5,128.008192524322
at:49:299:0:6,at:49:299:0:6,"(609548.4986317593, 5342090.892912405)",at:49:299:0:6,Aspernstraße,,,48.2225774854345,16.4749406162942,0290,,,,,,,,3.380728993229,4,0.867443751694,5,102.406554019457
at:49:487:0:11,at:49:487:0:11,"(610323.17172581, 5343310.1572557585)",at:49:487:0:11,Hausfeldstraße,,,48.2334090511646,16.4856844670938,0290,,,,,,,,3.439552522641,4,0.870455709165,5,72.537975763782
at:49:910:0:2,at:49:910:0:2,"(611736.2916496596, 5343458.089619284)",at:49:910:0:2,Aspern Nord,,,48.2344920816541,16.5047467174254,0290,,,,,,,,3.495108078196,4,0.873150618482,5,38.402457757296
at:49:942:0:2,at:49:942:0:2,"(612020.6988134335, 5342533.500670477)",at:49:942:0:2,Seestadt,,,48.2261264221747,16.5083309954096,0100,,,,,,,,3.547739657144,4,0.875576036866,5,0.0
at:49:981:0:6,at:49:981:0:6,"(597425.7968699769, 5340647.203107097)",at:49:981:0:6,Ottakring,,,48.2115700273947,16.3114382514089,0100,,,,,,,,0,1,0.0,1,0.0
at:49:1317:0:5,at:49:1317:0:5,"(597263.5165654005, 5339867.69653844)",at:49:1317:0:5,Kendlerstraße,,,48.2045836430654,16.3090756822113,0100,,,,,,,,1.0,2,0.460829493088,2,40.535927632702
at:49:1035:0:14,at:49:1035:0:14,"(597442.8192840539, 5339336.8927134145)",at:49:1035:0:14,Hütteldorfer Straße,,,48.1997818221082,16.3113663861861,0100,,,,,,,,1.5,2,0.614439324117,3,76.804915514593
at:49:606:0:10,at:49:606:0:10,"(598092.4340181989, 5339106.362800907)",at:49:606:0:10,Johnstraße,,,48.1976082813548,16.3200530949848,0100,,,,,,,,1.833333333333,2,0.691244239631,3,108.806963645673
at:49:1200:0:8,at:49:1200:0:8,"(598728.5116355848, 5339121.3189043095)",at:49:1200:0:8,Schweglerstraße,,,48.1976442083978,16.3286140396436,0100,,,,,,,,2.083333333333,3,0.73732718894,4,136.542072025943
at:49:1468:0:26,at:49:1468:0:26,"(599462.9691807929, 5338931.679301455)",at:49:1468:0:26,Westbahnhof,,,48.195823873188,16.3384505920061,0100,,,,,,,,2.283333333333,3,0.768049155146,4,160.010240655402
at:49:1530:0:4,at:49:1530:0:4,"(600043.9297037576, 5339082.965323043)",at:49:1530:0:4,Zieglergasse,,,48.1970933243038,16.3463018675904,0100,,,,,,,,2.45,3,0.789993416722,4,179.21146953405
at:49:56:0:7,at:49:56:0:7,"(600502.4606692989, 5339322.0236850325)",at:49:56:0:7,Neubaugasse,,,48.1991710844351,16.3525271925102,0100,,,,,,,,2.592857142857,3,0.806451612903,4,194.145758661888
at:49:1430:0:12,at:49:1430:0:12,"(600983.1357729668, 5340043.43991617)",at:49:1430:0:12,Volkstheater,,,48.2055834668659,16.3591657424608,0100,,,,,,,,2.717857142857,3,0.819252432156,4,204.813108038914
at:49:506:0:3,at:49:506:0:3,"(601418.3023646085, 5340463.831999243)",at:49:506:0:3,Herrengasse,,,48.2092952168304,16.3651215727953,0100,,,,,,,,2.828968253968,3,0.829493087558,4,211.213517665131
at:49:1320:0:5,at:49:1320:0:5,"(601894.6983523748, 5340328.54762885)",at:49:1320:0:5,Stephansplatz,,,48.2080021215702,16.3714996113135,0100,,,,,,,,2.928968253968,3,0.837871805614,4,213.346987540536
at:49:245:0:10,at:49:245:0:10,"(602472.9078023483, 5340213.097173901)",at:49:245:0:10,Stubentor,,,48.2068706364343,16.3792520722165,0100,,,,,,,,3.019877344877,4,0.844854070661,5,211.213517665131
at:49:743:0:12,at:49:743:0:12,"(602944.9518512961, 5340099.780097782)",at:49:743:0:12,Landstraße,,,48.2057750476414,16.3855762118176,0100,,,,,,,,3.103210678211,4,0.850762141085,5,204.813108038914
at:49:1104:0:7,at:49:1104:0:7,"(603398.2355233653, 5339733.205549643)",at:49:1104:0:7,Rochusgasse,,,48.2024043187669,16.3915859410692,0100,,,,,,,,3.180133755134,4,0.855826201448,5,194.145758661888
at:49:653:0:3,at:49:653:0:3,"(604071.012837437, 5339160.263109784)",at:49:653:0:3,Kardinal-Nagl-Platz,,,48.1971412275036,16.4004972286889,0100,,,,,,,,3.251562326562,4,0.860215053763,5,179.21146953405
at:49:1199:0:11,at:49:1199:0:11,"(604535.7635795414, 5338868.48919271)",at:49:1199:0:11,Schlachthausgasse,,,48.1944406147016,16.4066776378445,0100,,,,,,,,3.318228993229,4,0.864055299539,5,160.010240655402
at:49:289:0:4,at:49:289:0:4,"(605097.4431306185, 5338537.903098791)",at:49:289:0:4,Erdberg,,,48.1913745580146,16.4141516210094,0100,,,,,,,,3.380728993229,4,0.867443751694,5,136.542072025943
at:49:1749:0:3,at:49:1749:0:3,"(605335.7288296556, 5337820.486561855)",at:49:1749:0:3,Gasometer,,,48.1848825357277,16.4171789435173,0100,,,,,,,,3.439552522641,4,0.870455709165,5,108.806963645673
at:49:399:0:7,at:49:399:0:7,"(604949.8519420932, 5337301.940658418)",at:49:399:0:7,Zippererstraße,,,48.1802825240608,16.4118609170346,0100,,,,,,,,3.495108078196,4,0.873150618482,5,76.804915514593
at:49:425:0:10,at:49:425:0:10,"(605173.0075077092, 5336681.993202538)",at:49:425:0:10,Enkplatz,,,48.1746697111841,16.4147085764856,0100,,,,,,,,3.547739657144,4,0.875576036866,5,40.535927632702
at:49:1260:0:10,at:49:1260:0:10,"(605533.5645451639, 5336221.722275255)",at:49:1260:0:10,Simmering,,,48.1704701825458,16.4194426980336,0290,,,,,,,,3.597739657144,4,0.877770463024,5,0.0
at:49:1260:0:5,at:49:1260:0:5,"(605543.4350448059, 5336229.897734029)",at:49:1260:0:5,Simmering,,,48.1705420746598,16.4195774453262,0290,,,,,,,,0,1,0.0,1,0.0
at:49:425:0:4,at:49:425:0:4,"(605178.8585449104, 5336690.7594675515)",at:49:425:0:4,Enkplatz,,,48.1747475879248,16.4147894248612,0100,,,,,,,,1.0,2,0.460829493088,2,40.535927632702
at:49:399:0:3,at:49:399:0:3,"(604957.2582562887, 5337298.746838386)",at:49:399:0:3,Zippererstraße,,,48.1802525747157,16.4119597317158,0100,,,,,,,,1.5,2,0.614439324117,3,76.804915514593
at:49:1749:0:1,at:49:1749:0:1,"(605343.8392222363, 5337815.308790276)",at:49:1749:0:1,Gasometer,,,48.184834621067,16.4172867413514,0100,,,,,,,,1.833333333333,2,0.691244239631,3,108.806963645673
at:49:289:0:2,at:49:289:0:2,"(605102.6736828351, 5338543.991816025)",at:49:289:0:2,Erdberg,,,48.1914284551264,16.4142234862321,0100,,,,,,,,2.083333333333,3,0.73732718894,4,136.542072025943
at:49:1199:0:3,at:49:1199:0:3,"(604538.9917247669, 5338874.540376614)",at:49:1199:0:3,Schlachthausgasse,,,48.1944945085885,16.4067225536087,0100,,,,,,,,2.283333333333,3,0.768049155146,4,160.010240655402
at:49:653:0:1,at:49:653:0:1,"(604077.5425171771, 5339168.371133659)",at:49:653:0:1,Kardinal-Nagl-Platz,,,48.1972130822194,16.4005870602173,0100,,,,,,,,2.45,3,0.789993416722,4,179.21146953405
at:49:1104:0:2,at:49:1104:0:2,"(603402.1438405388, 5339738.601782442)",at:49:1104:0:2,Rochusgasse,,,48.2024522170008,16.3916398399862,0100,,,,,,,,2.592857142857,3,0.806451612903,4,194.145758661888
at:49:743:0:4,at:49:743:0:4,"(602947.5135017416, 5340105.81701844)",at:49:743:0:4,Landstraße,,,48.2058289296054,16.3856121444289,0100,,,,,,,,2.717857142857,3,0.819252432156,4,204.813108038914
at:49:245:0:6,at:49:245:0:6,"(602474.6710994464, 5340226.441225277)",at:49:245:0:6,Stubentor,,,48.2069903714938,16.379279021675,0100,,,,,,,,2.828968253968,3,0.829493087558,4,211.213517665131
at:49:1320:0:3,at:49:1320:0:3,"(601897.9521256532, 5340333.26493624)",at:49:1320:0:3,Stephansplatz,,,48.208044027947,16.3715445270777,0100,,,,,,,,2.928968253968,3,0.837871805614,4,213.346987540536
at:49:506:0:2,at:49:506:0:2,"(601417.4931333956, 5340471.804641847)",at:49:506:0:2,Herrengasse,,,48.2093670544986,16.3651125896425,0100,,,,,,,,3.019877344877,4,0.844854070661,5,211.213517665131
at:49:1430:0:4,at:49:1430:0:4,"(600977.0348746642, 5340048.657051462)",at:49:1430:0:4,Volkstheater,,,48.205631362127,16.3590848940852,0100,,,,,,,,3.103210678211,4,0.850762141085,5,204.813108038914
at:49:56:0:5,at:49:56:0:5,"(600497.6476219367, 5339329.92751701)",at:49:56:0:5,Neubaugasse,,,48.1992429363039,16.3524643104403,0100,,,,,,,,3.180133755134,4,0.855826201448,5,194.145758661888
at:49:1530:0:2,at:49:1530:0:2,"(600038.3912920379, 5339094.185823)",at:49:1530:0:2,Zieglergasse,,,48.1971951185499,16.3462300023677,0100,,,,,,,,3.251562326562,4,0.860215053763,5,179.21146953405
at:49:1468:0:9,at:49:1468:0:9,"(599461.5065887184, 5338938.977092088)",at:49:1468:0:9,Westbahnhof,,,48.1958897417082,16.3384326257004,0100,,,,,,,,3.318228993229,4,0.864055299539,5,160.010240655402
at:49:1200:0:4,at:49:1200:0:4,"(598728.9835458866, 5339132.644387076)",at:49:1200:0:4,Schweglerstraße,,,48.1977460015493,16.3286230227965,0100,,,,,,,,3.380728993229,4,0.867443751694,5,136.542072025943
at:49:606:0:4,at:49:606:0:4,"(598093.6204382197, 5339115.037583169)",at:49:606:0:4,Johnstraße,,,48.1976861232494,16.3200710612904,0100,,,,,,,,3.439552522641,4,0.870455709165,5,108.806963645673
at:49:1035:0:5,at:49:1035:0:5,"(597449.426060675, 5339340.9996221345)",at:49:1035:0:5,Hütteldorfer Straße,,,48.1998177476269,16.3114562177145,0100,,,,,,,,3.495108078196,4,0.873150618482,5,76.804915514593
at:49:1317:0:2,at:49:1317:0:2,"(597274.2294577511, 5339865.882166257)",at:49:1317:0:2,Kendlerstraße,,,48.2045656819803,16.3092194126568,0100,,,,,,,,3.547739657144,4,0.875576036866,5,40.535927632702
at:49:981:0:11,at:49:981:0:11,"(597437.1757079487, 5340645.400720864)",at:49:981:0:11,Ottakring,,,48.2115520687596,16.3115909650072,0100,,,,,,,,3.597739657144,4,0.877770463024,5,0.0
at:49:560:0:11,at:49:560:0:11,"(593684.6691217712, 5338958.455465573)",at:49:560:0:11,Hütteldorf,,,48.1969436265156,16.2607193704604,0250,,,,,,,,0,1,0.0,1,0.0
at:49:956:0:4,at:49:956:0:4,"(594834.2090475787, 5338451.48609696)",at:49:956:0:4,Ober St. Veit,,,48.1922129511139,16.2760715786681,0100,,,,,,,,1.0,2,0.460829493088,2,38.402457757296
at:49:1404:0:2,at:49:1404:0:2,"(595591.404921452, 5338335.6107726395)",at:49:1404:0:2,Unter St. Veit,,,48.1910571627619,16.286231524533,0100,,,,,,,,1.5,2,0.614439324117,3,72.537975763782
at:49:161:0:3,at:49:161:0:3,"(596306.9391739913, 5338157.873936012)",at:49:161:0:3,Braunschweiggasse,,,48.1893503809965,16.2958165486158,0100,,,,,,,,1.833333333333,2,0.691244239631,3,102.406554019457
at:49:520:0:4,at:49:520:0:4,"(596978.69288169, 5337965.492821236)",at:49:520:0:4,Hietzing,,,48.1875177730813,16.3048086846111,0100,,,,,,,,2.083333333333,3,0.73732718894,4,128.008192524322
at:49:1211:0:3,at:49:1211:0:3,"(598027.0794774063, 5337817.587134865)",at:49:1211:0:3,Schönbrunn,,,48.1860264849486,16.3188763019624,0100,,,,,,,,2.283333333333,3,0.768049155146,4,149.342891278375
at:49:863:0:7,at:49:863:0:7,"(598698.7170596543, 5337560.797523042)",at:49:863:0:7,Meidling Hauptstraße,,,48.1836127820882,16.327850471652,0100,,,,,,,,2.45,3,0.789993416722,4,166.410650281618
at:49:820:0:8,at:49:820:0:8,"(599229.8635812628, 5337705.1757044615)",at:49:820:0:8,Längenfeldgasse,,,48.1848286317313,16.3350280107731,0100,,,,,,,,2.592857142857,3,0.806451612903,4,179.21146953405
at:49:827:0:7,at:49:827:0:7,"(599819.7140273928, 5338119.635104774)",at:49:827:0:7,Margaretengürtel,,,48.1884640297954,16.3430589494143,0100,,,,,,,,2.717857142857,3,0.819252432156,4,187.745349035672
at:49:1018:0:6,at:49:1018:0:6,"(600651.0539394729, 5338543.706630121)",at:49:1018:0:6,Pilgramgasse,,,48.1921470778669,16.3543417893844,0100,,,,,,,,2.828968253968,3,0.829493087558,4,192.012288786482
at:49:670:0:4,at:49:670:0:4,"(600921.3439895492, 5339044.479092634)",at:49:670:0:4,Kettenbrückengasse,,,48.1966083018829,16.3580967472725,0100,,,,,,,,2.928968253968,3,0.837871805614,4,192.012288786482
at:49:657:0:14,at:49:657:0:14,"(601771.0532863991, 5339474.971987828)",at:49:657:0:14,Karlsplatz,,,48.2003446523406,16.3696311155222,0100,,,,,,,,3.019877344877,4,0.844854070661,5,187.745349035672
at:49:1305:0:3,at:49:1305:0:3,"(602517.728059859, 5339761.92758875)",at:49:1305:0:3,Stadtpark,,,48.2028054650923,16.3797461456228,0100,,,,,,,,3.103210678211,4,0.850762141085,5,179.21146953405
at:49:743:0:13,at:49:743:0:13,"(602892.6651353625, 5340222.6444882555)",at:49:743:0:13,Landstraße,,,48.2068885967111,16.3849024753544,0100,,,,,,,,3.180133755134,4,0.855826201448,5,166.410650281618
at:49:1198:0:20,at:49:1198:0:20,"(602380.1729012455, 5340767.864924609)",at:49:1198:0:20,Schwedenplatz,,,48.2118753232267,16.378138161264,0100,,,,,,,,3.251562326562,4,0.860215053763,5,149.342891278375
at:49:1182:0:18,at:49:1182:0:18,"(601916.2731430302, 5341288.653667779)",at:49:1182:0:18,Schottenring,,,48.2166341111616,16.3720206341783,0100,,,,,,,,3.318228993229,4,0.864055299539,5,128.008192524322
at:49:1124:0:2,at:49:1124:0:2,"(601577.987976497, 5341918.796903301)",at:49:1124:0:2,Roßauer Lände,,,48.2223560427773,16.3676188892855,0100,,,,,,,,3.380728993229,4,0.867443751694,5,102.406554019457
at:49:357:0:3,at:49:357:0:3,"(601325.5047357348, 5342493.856348776)",at:49:357:0:3,Friedensbrücke,,,48.2275686684693,16.3643580048037,0100,,,,,,,,3.439552522641,4,0.870455709165,5,72.537975763782
at:49:1062:0:11,at:49:1062:0:11,"(600883.5336430934, 5343297.025155864)",at:49:1062:0:11,Spittelau,,,48.2348630592026,16.3585998038317,0230,,,,,,,,3.495108078196,4,0.873150618482,5,38.402457757296
at:49:491:0:5,at:49:491:0:5,"(601413.5297339781, 5344860.918800518)",at:49:491:0:5,Heiligenstadt,,,48.2488445579099,16.366109719608,0230,,,,,,,,3.547739657144,4,0.875576036866,5,0.0
at:49:491:0:8,at:49:491:0:8,"(601404.1228299267, 5344864.741902034)",at:49:491:0:8,Heiligenstadt,,,48.2488804490089,16.3659839554682,0230,,,,,,,,0,1,0.0,1,0.0
at:49:1062:0:4,at:49:1062:0:4,"(600876.8750594336, 5343296.242117076)",at:49:1062:0:4,Spittelau,,,48.2348570757151,16.3585099723033,0230,,,,,,,,1.0,2,0.460829493088,2,38.402457757296
at:49:357:0:1,at:49:357:0:1,"(601320.2503987955, 5342489.105569014)",at:49:357:0:1,Friedensbrücke,,,48.2275267780711,16.364286139581,0100,,,,,,,,1.5,2,0.614439324117,3,72.537975763782
at:49:1124:0:1,at:49:1124:0:1,"(601571.3396903682, 5341917.347707015)",at:49:1124:0:1,Roßauer Lände,,,48.2223440728766,16.3675290577571,0100,,,,,,,,1.833333333333,2,0.691244239631,3,102.406554019457
at:49:1182:0:6,at:49:1182:0:6,"(601909.6954756718, 5341283.212252671)",at:49:1182:0:6,Schottenring,,,48.2165862261903,16.3719308026499,0100,,,,,,,,2.083333333333,3,0.73732718894,4,128.008192524322
at:49:1198:0:9,at:49:1198:0:9,"(602378.2663782968, 5340762.506276489)",at:49:1198:0:9,Schwedenplatz,,,48.2118274338048,16.3781112118055,0100,,,,,,,,2.283333333333,3,0.768049155146,4,149.342891278375
at:49:743:0:3,at:49:743:0:3,"(602885.2757905216, 5340225.173791632)",at:49:743:0:3,Landstraße,,,48.2069125437369,16.3848036606731,0100,,,,,,,,2.45,3,0.789993416722,4,166.410650281618
at:49:1305:0:1,at:49:1305:0:1,"(602509.5752716437, 5339769.769274024)",at:49:1305:0:1,Stadtpark,,,48.2028773118637,16.3796383477887,0100,,,,,,,,2.592857142857,3,0.806451612903,4,179.21146953405
at:49:657:0:9,at:49:657:0:9,"(601772.960841515, 5339480.331601975)",at:49:657:0:9,Karlsplatz,,,48.2003925525003,16.3696580649807,0100,,,,,,,,2.717857142857,3,0.819252432156,4,187.745349035672
at:49:670:0:1,at:49:670:0:1,"(600919.9030705449, 5339050.445347591)",at:49:670:0:1,Kettenbrückengasse,,,48.1966621934897,16.3580787809668,0100,,,,,,,,2.828968253968,3,0.829493087558,4,192.012288786482
at:49:1018:0:3,at:49:1018:0:3,"(600645.0221703578, 5338544.93194508)",at:49:1018:0:3,Pilgramgasse,,,48.1921590548272,16.3542609410088,0100,,,,,,,,2.928968253968,3,0.837871805614,4,192.012288786482
at:49:827:0:2,at:49:827:0:2,"(599819.6326042035, 5338124.294614076)",at:49:827:0:2,Margaretengürtel,,,48.1885059521571,16.3430589494143,0100,,,,,,,,3.019877344877,4,0.844854070661,5,187.745349035672
at:49:820:0:4,at:49:820:0:4,"(599222.4149823431, 5337711.039361525)",at:49:820:0:4,Längenfeldgasse,,,48.1848825357277,16.3349291960919,0100,,,,,,,,3.103210678211,4,0.850762141085,5,179.21146953405
at:49:863:0:2,at:49:863:0:2,"(598698.5560549638, 5337570.117418817)",at:49:863:0:2,Meidling Hauptstraße,,,48.1836966347136,16.327850471652,0100,,,,,,,,3.180133755134,4,0.855826201448,5,166.410650281618
at:49:1211:0:1,at:49:1211:0:1,"(598029.6016641362, 5337826.2867511045)",at:49:1211:0:1,Schönbrunn,,,48.1861043444387,16.3189122345738,0100,,,,,,,,3.251562326562,4,0.860215053763,5,149.342891278375
at:49:520:0:10,at:49:520:0:10,"(596979.2588278424, 5337971.495072482)",at:49:520:0:10,Hietzing,,,48.1875716742494,16.304817667764,0100,,,,,,,,3.318228993229,4,0.864055299539,5,128.008192524322
at:49:161:0:1,at:49:161:0:1,"(596309.4525666276, 5338167.237835863)",at:49:161:0:1,Braunschweiggasse,,,48.1894342242354,16.2958524812272,0100,,,,,,,,3.380728993229,4,0.867443751694,5,102.406554019457
at:49:1404:0:1,at:49:1404:0:1,"(595591.9834114435, 5338340.946844849)",at:49:1404:0:1,Unter St. Veit,,,48.1911050716052,16.2862405076858,0100,,,,,,,,3.439552522641,4,0.870455709165,5,72.537975763782
at:49:956:0:1,at:49:956:0:1,"(594834.7550729127, 5338458.8187562935)",at:49:956:0:1,Ober St. Veit,,,48.1922788242762,16.276080561821,0100,,,,,,,,3.495108078196,4,0.873150618482,5,38.402457757296
at:49:560:0:17,at:49:560:0:17,"(593689.1234606461, 5338971.84286123)",at:49:560:0:17,Hütteldorf,,,48.1970633847811,16.2607822525303,0250,,,,,,,,3.547739657144,4,0.875576036866,5,0.0
at:49:1235:0:6,at:49:1235:0:6,"(597459.2496792568, 5331591.945135295)",at:49:1235:0:6,Siebenhirten,,,48.1301168219423,16.3098123007444,0270,,,,,,,,0,1,0.0,1,0.0
at:49:1007:0:4,at:49:1007:0:4,"(597707.5014005237, 5332324.048278981)",at:49:1007:0:4,Perfektastraße,,,48.1366637379535,16.3133157303529,0270,,,,,,,,1.0,2,0.460829493088,2,46.936337258918
at:49:285:0:2,at:49:285:0:2,"(597940.7377067023, 5332953.185098511)",at:49:285:0:2,Erlaaer Straße,,,48.14228670449,16.3165945811404,0100,,,,,,,,1.5,2,0.614439324117,3,0.0
at:49:1499:0:6,at:49:1499:0:6,"(597950.092056396, 5333890.276586983)",at:49:1499:0:6,Alterlaa,,,48.1507140062115,16.3169359409484,0100,,,,,,,,2.5,3,1.036866359447,5,128.008192524322
at:49:48:0:5,at:49:48:0:5,"(598493.5694154028, 5335046.912659691)",at:49:48:0:5,Am Schöpfwerk,,,48.1610334678531,16.3245087387946,0100,,,,,,,,2.333333333333,3,0.921658986175,5,162.143710530807
at:49:1394:0:1,at:49:1394:0:1,"(598715.619924502, 5335460.438309262)",at:49:1394:0:1,Tscherttegasse,,,48.1647184868733,16.3275899602196,0100,,,,,,,,2.416666666667,3,0.88621056363,5,192.012288786482
at:49:1015:0:11,at:49:1015:0:11,"(598984.5493082108, 5336444.245703541)",at:49:1015:0:11,Meidling,,,48.173525508511,16.3314347496361,0270,,,,,,,,2.533333333333,3,0.873150618482,5,217.613927291347
at:49:937:0:4,at:49:937:0:4,"(598951.8186036978, 5337254.18859155)",at:49:937:0:4,Niederhofstraße,,,48.1808156194766,16.3311832213566,0100,,,,,,,,2.65,3,0.868486352357,5,238.9486260454
at:49:820:0:7,at:49:820:0:7,"(599236.6213825342, 5337700.63183699)",at:49:820:0:7,Längenfeldgasse,,,48.1847867063617,16.3351178423015,0100,,,,,,,,2.759523809524,3,0.867443751694,5,256.016385048643
at:49:436:0:8,at:49:436:0:8,"(599409.213960824, 5338375.479769036)",at:49:436:0:8,Gumpendorfer Straße,,,48.1908295951442,16.3375971924861,0100,,,,,,,,2.860714285714,3,0.868074161397,5,268.817204301075
at:49:1468:0:23,at:49:1468:0:23,"(599516.2063976505, 5339057.101018512)",at:49:1468:0:23,Westbahnhof,,,48.1969436265156,16.339196193692,0100,,,,,,,,2.953968253968,3,0.869489609599,5,277.351083802697
at:49:188:0:1,at:49:188:0:1,"(599361.0791999218, 5339760.037604116)",at:49:188:0:1,Burggasse-Stadthalle,,,48.2032904288433,16.3372737989837,0100,,,,,,,,3.040079365079,4,0.871255760369,5,281.618023553507
at:49:1372:0:9,at:49:1372:0:9,"(599402.6792277738, 5340246.669619912)",at:49:1372:0:9,Thaliastraße,,,48.2076608826539,16.3379475354469,0100,,,,,,,,3.119877344877,4,0.873150618482,5,281.618023553507
at:49:615:0:7,at:49:615:0:7,"(599491.6452042501, 5340696.150472807)",at:49:615:0:7,Josefstädter Straße,,,48.2116897514673,16.3392500926091,0100,,,,,,,,3.19411976912,4,0.875058250919,5,277.351083802697
at:49:27:0:5,at:49:27:0:5,"(599678.5853998758, 5341267.76226586)",at:49:27:0:5,Alser Straße,,,48.2168017082083,16.3419001226976,0100,,,,,,,,3.263467088467,4,0.876918258691,5,268.817204301075
at:49:874:0:6,at:49:874:0:6,"(599851.3632371556, 5341769.208046625)",at:49:874:0:6,Michelbeuern-AKH,,,48.2212847255835,16.3443435402707,0100,,,,,,,,3.328485403485,4,0.878700304616,5,256.016385048643
at:49:1510:0:10,at:49:1510:0:10,"(600230.4585463771, 5342262.926664957)",at:49:1510:0:10,Währinger Str.-Volksoper,,,48.2256656129244,16.3495627520722,0100,,,,,,,,3.389657564658,4,0.880390673361,5,238.9486260454
at:49:950:0:13,at:49:950:0:13,"(600428.2931696493, 5342890.490113537)",at:49:950:0:13,Nußdorfer Straße,,,48.2312788248639,16.3523744789119,0100,,,,,,,,3.447395659896,4,0.881984923856,5,217.613927291347
at:49:1062:0:10,at:49:1062:0:10,"(600844.7920064769, 5343374.839416097)",at:49:1062:0:10,Spittelau,,,48.2355691058155,16.3580967472725,0230,,,,,,,,3.502052522641,4,0.883483761896,5,192.012288786482
at:49:1667:0:7,at:49:1667:0:7,"(601632.6405046746, 5343346.249621334)",at:49:1667:0:7,Jägerstraße,,,48.2351861664889,16.3686968676266,0100,,,,,,,,3.553931607608,4,0.884890675556,5,162.143710530807
at:49:500:0:5,at:49:500:0:5,"(602474.3833670066, 5343586.830120897)",at:49:500:0:5,Dresdner Straße,,,48.2372145156188,16.3800875054308,0100,,,,,,,,3.603295212699,4,0.88621056363,5,128.008192524322
at:49:1705:0:7,at:49:1705:0:7,"(602882.0092495328, 5344107.040442872)",at:49:1705:0:7,Handelskai,,,48.2418273642258,16.3857019759574,0230,,,,,,,,3.650371236091,4,0.88744893647,5,89.605734767025
at:49:1668:0:3,at:49:1668:0:3,"(603549.7291425891, 5344627.299301626)",at:49:1668:0:3,Neue Donau,,,48.2463979219467,16.3948198760924,0100,,,,,,,,3.695358704763,4,0.888611452806,5,46.936337258918
at:49:334:0:15,at:49:334:0:15,"(603952.6817289941, 5345723.326911192)",at:49:334:0:15,Floridsdorf,,,48.256189744527,16.4005151949946,0220,,,,,,,,3.738432297836,4,0.889703656362,5,0.0
at:49:334:0:2,at:49:334:0:2,"(603944.6200285414, 5345726.504812357)",at:49:334:0:2,Floridsdorf,,,48.2562196494819,16.4004073971604,0220,,,,,,,,0,1,0.0,1,0.0
at:49:1668:0:1,at:49:1668:0:1,"(603547.6922595128, 5344629.257649518)",at:49:1668:0:1,Neue Donau,,,48.2464158683579,16.3947929266339,0100,,,,,,,,1.0,2,0.460829493088,2,46.936337258918
at:49:1705:0:1,at:49:1705:0:1,"(602877.8876052045, 5344113.617787832)",at:49:1705:0:1,Handelskai,,,48.2418871909176,16.3856480770403,0230,,,,,,,,1.5,2,0.614439324117,3,89.605734767025
at:49:500:0:1,at:49:500:0:1,"(602470.9766489874, 5343590.760280831)",at:49:500:0:1,Dresdner Straße,,,48.2372504148791,16.3800425896666,0100,,,,,,,,1.833333333333,2,0.691244239631,3,128.008192524322
at:49:1667:0:2,at:49:1667:0:2,"(601632.5101336422, 5343353.565075757)",at:49:1667:0:2,Jägerstraße,,,48.2352519843896,16.3686968676266,0100,,,,,,,,2.083333333333,3,0.73732718894,4,162.143710530807
at:49:1062:0:2,at:49:1062:0:2,"(600842.6027722923, 5343385.444614899)",at:49:1062:0:2,Spittelau,,,48.2356648401993,16.358069797814,0230,,,,,,,,2.283333333333,3,0.768049155146,4,192.012288786482
at:49:950:0:2,at:49:950:0:2,"(600426.1865308323, 5342896.440706954)",at:49:950:0:2,Nußdorfer Straße,,,48.2313326799922,16.3523475294534,0100,,,,,,,,2.45,3,0.789993416722,4,217.613927291347
at:49:1510:0:3,at:49:1510:0:3,"(600225.0979375497, 5342264.163224921)",at:49:1510:0:3,Währinger Str.-Volksoper,,,48.2256775820483,16.3494908868495,0100,,,,,,,,2.592857142857,3,0.806451612903,4,238.9486260454
at:49:874:0:2,at:49:874:0:2,"(599847.3017612272, 5341772.464096758)",at:49:874:0:2,Michelbeuern-AKH,,,48.2213146509491,16.3442896413537,0100,,,,,,,,2.717857142857,3,0.819252432156,4,256.016385048643
at:49:27:0:2,at:49:27:0:2,"(599667.8393622694, 5341271.567465178)",at:49:27:0:2,Alser Straße,,,48.2168376217898,16.3417563922521,0100,,,,,,,,2.828968253968,3,0.829493087558,4,268.817204301075
at:49:615:0:1,at:49:615:0:1,"(599483.6371647613, 5340696.010887384)",at:49:615:0:1,Josefstädter Straße,,,48.2116897514673,16.339142294775,0100,,,,,,,,2.928968253968,3,0.837871805614,4,277.351083802697
at:49:1372:0:2,at:49:1372:0:2,"(599397.3053570613, 5340248.572842504)",at:49:1372:0:2,Thaliastraße,,,48.2076788426536,16.3378756702242,0100,,,,,,,,3.019877344877,4,0.844854070661,5,281.618023553507
at:49:188:0:4,at:49:188:0:4,"(599351.7465378623, 5339759.209536944)",at:49:188:0:4,Burggasse-Stadthalle,,,48.2032844416645,16.3371480348439,0100,,,,,,,,3.103210678211,4,0.850762141085,5,281.618023553507
at:49:1468:0:5,at:49:1468:0:5,"(599509.5659065193, 5339054.988088149)",at:49:1468:0:5,Westbahnhof,,,48.1969256627516,16.3391063621636,0100,,,,,,,,3.180133755134,4,0.855826201448,5,277.351083802697
at:49:436:0:1,at:49:436:0:1,"(599404.5407062208, 5338375.398436807)",at:49:436:0:1,Gumpendorfer Straße,,,48.1908295951442,16.3375343104162,0100,,,,,,,,3.251562326562,4,0.860215053763,5,268.817204301075
at:49:820:0:1,at:49:820:0:1,"(599217.671819846, 5337714.952333257)",at:49:820:0:1,Längenfeldgasse,,,48.1849184716937,16.334866314022,0100,,,,,,,,3.318228993229,4,0.864055299539,5,256.016385048643
at:49:937:0:1,at:49:937:0:1,"(598947.8121750044, 5337254.119209697)",at:49:937:0:1,Niederhofstraße,,,48.1808156194766,16.3311293224395,0100,,,,,,,,3.380728993229,4,0.867443751694,5,238.9486260454
at:49:1015:0:4,at:49:1015:0:4,"(598978.561875047, 5336442.809934749)",at:49:1015:0:4,Meidling,,,48.1735135271961,16.3313539012606,0270,,,,,,,,3.439552522641,4,0.870455709165,5,217.613927291347
at:49:1394:0:2,at:49:1394:0:2,"(598707.512572712, 5335465.627517333)",at:49:1394:0:2,Tscherttegasse,,,48.1647664203358,16.3274821623855,0100,,,,,,,,3.495108078196,4,0.873150618482,5,192.012288786482
at:49:48:0:2,at:49:48:0:2,"(598487.5115710769, 5335049.473094228)",at:49:48:0:2,Am Schöpfwerk,,,48.1610574363117,16.324427890419,0100,,,,,,,,3.547739657144,4,0.875576036866,5,162.143710530807
at:49:1499:0:1,at:49:1499:0:1,"(597940.7268365496, 5333890.782546355)",at:49:1499:0:1,Alterlaa,,,48.1507199995326,16.3168101768086,0100,,,,,,,,3.597739657144,4,0.877770463024,5,128.008192524322
at:49:285:0:1,at:49:285:0:1,"(597933.3642702765, 5332954.391755779)",at:49:285:0:1,Erlaaer Straße,,,48.1422986930997,16.3164957664592,0100,,,,,,,,3.645358704763,4,0.879765395894,5,0.0
at:49:1007:0:1,at:49:1007:0:1,"(597702.7890882342, 5332325.967343233)",at:49:1007:0:1,Perfektastraße,,,48.1366817228368,16.313252848283,0270,,,,,,,,4.645358704763,5,0.961385666614,5,46.936337258918
at:49:1235:0:1,at:49:1235:0:1,"(597450.5264796512, 5331593.796386172)",at:49:1235:0:1,Siebenhirten,,,48.1301348091188,16.3096955197574,0270,,,,,,,,4.190813250217,5,0.955995301346,5,0.0
